{
  "generated": "2026-07-06T04:10:07",
  "places": [
    {
      "name": "엄지네포장마차 본점",
      "lat": 37.7663141,
      "lng": 128.9070025,
      "current": null,
      "weekly": null,
      "footfall": null,
      "source": "google",
      "updated": "2026-07-06T04:09:39"
    },
    {
      "name": "초당할머니순두부",
      "lat": 37.790419,
      "lng": 128.9154754,
      "current": null,
      "weekly": null,
      "footfall": null,
      "source": "google",
      "updated": "2026-07-06T04:09:40"
    },
    {
      "name": "동화가든 본점",
      "lat": 37.7911718,
      "lng": 128.9146287,
      "current": null,
      "weekly": null,
      "footfall": null,
      "source": "google",
      "updated": "2026-07-06T04:09:42"
    },
    {
      "name": "큰기와집순두부",
      "lat": 37.7921601,
      "lng": 128.9144151,
      "current": null,
      "weekly": null,
      "footfall": null,
      "source": "google",
      "updated": "2026-07-06T04:09:43"
    },
    {
      "name": "토담순두부",
      "lat": 37.7910714,
      "lng": 128.9104696,
      "current": null,
      "weekly": null,
      "footfall": null,
      "source": "google",
      "updated": "2026-07-06T04:09:45"
    },
    {
      "name": "카페 툇마루",
      "lat": 37.79283909999999,
      "lng": 128.9145879,
      "current": null,
      "weekly": null,
      "footfall": null,
      "source": "google",
      "updated": "2026-07-06T04:09:46"
    },
    {
      "name": "순두부젤라또 1호점",
      "lat": 37.7916588,
      "lng": 128.9154558,
      "current": null,
      "weekly": null,
      "footfall": null,
      "source": "google",
      "updated": "2026-07-06T04:09:47"
    },
    {
      "name": "테라로사 커피공장",
      "lat": 37.6961635,
      "lng": 128.8923885,
      "current": null,
      "weekly": null,
      "footfall": null,
      "source": "google",
      "updated": "2026-07-06T04:09:48"
    },
    {
      "name": "보헤미안 박이추커피",
      "lat": 37.8646243,
      "lng": 128.842491,
      "current": null,
      "weekly": null,
      "footfall": null,
      "source": "google",
      "updated": "2026-07-06T04:09:50"
    },
    {
      "name": "카페 산토리니",
      "lat": 37.7707527,
      "lng": 128.9500998,
      "current": null,
      "weekly": null,
      "footfall": null,
      "source": "google",
      "updated": "2026-07-06T04:09:51"
    },
    {
      "name": "만동빵집",
      "lat": 37.7551432,
      "lng": 128.8994671,
      "current": null,
      "weekly": null,
      "footfall": null,
      "source": "google",
      "updated": "2026-07-06T04:09:52"
    },
    {
      "name": "강릉중앙시장",
      "lat": 37.7539833,
      "lng": 128.8985663,
      "current": null,
      "weekly": null,
      "footfall": null,
      "source": "google",
      "updated": "2026-07-06T04:09:53"
    },
    {
      "name": "중앙시장 닭강정골목",
      "lat": 37.7538519,
      "lng": 128.8992426,
      "current": null,
      "weekly": null,
      "footfall": null,
      "source": "google",
      "updated": "2026-07-06T04:09:54"
    },
    {
      "name": "월화거리",
      "lat": 37.7534233,
      "lng": 128.900185,
      "current": null,
      "weekly": null,
      "footfall": null,
      "source": "google",
      "updated": "2026-07-06T04:09:55"
    },
    {
      "name": "교동반점",
      "lat": 37.758351,
      "lng": 128.8930428,
      "current": null,
      "weekly": null,
      "footfall": null,
      "source": "google",
      "updated": "2026-07-06T04:09:57"
    },
    {
      "name": "강릉감자옹심이 본점",
      "lat": 37.7564341,
      "lng": 128.8948752,
      "current": null,
      "weekly": null,
      "footfall": null,
      "source": "google",
      "updated": "2026-07-06T04:09:58"
    },
    {
      "name": "형제칼국수",
      "lat": 37.7578859,
      "lng": 128.8930168,
      "current": null,
      "weekly": null,
      "footfall": null,
      "source": "google",
      "updated": "2026-07-06T04:09:59"
    },
    {
      "name": "삼교리동치미막국수",
      "lat": 37.721335,
      "lng": 128.8821719,
      "current": null,
      "weekly": null,
      "footfall": null,
      "source": "google",
      "updated": "2026-07-06T04:10:00"
    },
    {
      "name": "해성횟집",
      "lat": 37.7541035,
      "lng": 128.8984997,
      "current": null,
      "weekly": null,
      "footfall": null,
      "source": "google",
      "updated": "2026-07-06T04:10:01"
    },
    {
      "name": "오봉집 물회",
      "lat": 37.8019814,
      "lng": 128.910769,
      "current": null,
      "weekly": null,
      "footfall": null,
      "source": "google",
      "updated": "2026-07-06T04:10:02"
    },
    {
      "name": "경포호 주변 횟집거리",
      "lat": 37.8012929,
      "lng": 128.9115102,
      "current": null,
      "weekly": null,
      "footfall": null,
      "source": "google",
      "updated": "2026-07-06T04:10:04"
    },
    {
      "name": "안목해변 커피거리",
      "lat": 37.7732303,
      "lng": 128.9454765,
      "current": null,
      "weekly": null,
      "footfall": null,
      "source": "google",
      "updated": "2026-07-06T04:10:05"
    },
    {
      "name": "강문해변 카페거리",
      "lat": 37.7947359,
      "lng": 128.9185621,
      "current": null,
      "weekly": null,
      "footfall": null,
      "source": "google",
      "updated": "2026-07-06T04:10:06"
    },
    {
      "name": "버드나무브루어리",
      "lat": 37.74822959999999,
      "lng": 128.8843596,
      "current": null,
      "weekly": null,
      "footfall": null,
      "source": "google",
      "updated": "2026-07-06T04:10:07"
    }
  ]
}