{
  "generated": "2026-07-06T18:09:29+00:00",
  "places": [
    {
      "name": "엄지네포장마차 본점",
      "lat": 37.7663141,
      "lng": 128.9070025,
      "current": null,
      "weekly": null,
      "footfall": null,
      "source": "google",
      "updated": "2026-07-06T18:08:46+00:00"
    },
    {
      "name": "초당할머니순두부",
      "lat": 37.790419,
      "lng": 128.9154754,
      "current": null,
      "weekly": null,
      "footfall": null,
      "source": "google",
      "updated": "2026-07-06T18:08:47+00:00"
    },
    {
      "name": "동화가든 본점",
      "lat": 37.7911718,
      "lng": 128.9146287,
      "current": null,
      "weekly": null,
      "footfall": null,
      "source": "google",
      "updated": "2026-07-06T18:08:48+00:00"
    },
    {
      "name": "큰기와집순두부",
      "lat": 37.7921601,
      "lng": 128.9144151,
      "current": null,
      "weekly": null,
      "footfall": null,
      "source": "google",
      "updated": "2026-07-06T18:08:50+00:00"
    },
    {
      "name": "토담순두부",
      "lat": 37.7910714,
      "lng": 128.9104696,
      "current": null,
      "weekly": null,
      "footfall": null,
      "source": "google",
      "updated": "2026-07-06T18:08:51+00:00"
    },
    {
      "name": "카페 툇마루",
      "lat": 37.79283909999999,
      "lng": 128.9145879,
      "current": null,
      "weekly": null,
      "footfall": null,
      "source": "google",
      "updated": "2026-07-06T18:08:52+00:00"
    },
    {
      "name": "순두부젤라또 1호점",
      "lat": 37.7916588,
      "lng": 128.9154558,
      "current": null,
      "weekly": null,
      "footfall": null,
      "source": "google",
      "updated": "2026-07-06T18:08:54+00:00"
    },
    {
      "name": "테라로사 커피공장",
      "lat": 37.6961635,
      "lng": 128.8923885,
      "current": null,
      "weekly": null,
      "footfall": null,
      "source": "google",
      "updated": "2026-07-06T18:08:56+00:00"
    },
    {
      "name": "보헤미안 박이추커피",
      "lat": 37.8646243,
      "lng": 128.842491,
      "current": null,
      "weekly": null,
      "footfall": null,
      "source": "google",
      "updated": "2026-07-06T18:08:57+00:00"
    },
    {
      "name": "카페 산토리니",
      "lat": 37.7707527,
      "lng": 128.9500998,
      "current": null,
      "weekly": null,
      "footfall": null,
      "source": "google",
      "updated": "2026-07-06T18:08:58+00:00"
    },
    {
      "name": "만동빵집",
      "lat": 37.7551432,
      "lng": 128.8994671,
      "current": null,
      "weekly": null,
      "footfall": null,
      "source": "google",
      "updated": "2026-07-06T18:08:59+00:00"
    },
    {
      "name": "강릉중앙시장",
      "lat": 37.7539833,
      "lng": 128.8985663,
      "current": null,
      "weekly": null,
      "footfall": null,
      "source": "google",
      "updated": "2026-07-06T18:09:01+00:00"
    },
    {
      "name": "중앙시장 닭강정골목",
      "lat": 37.7538519,
      "lng": 128.8992426,
      "current": null,
      "weekly": null,
      "footfall": null,
      "source": "google",
      "updated": "2026-07-06T18:09:02+00:00"
    },
    {
      "name": "월화거리",
      "lat": 37.7534233,
      "lng": 128.900185,
      "current": null,
      "weekly": null,
      "footfall": null,
      "source": "google",
      "updated": "2026-07-06T18:09:03+00:00"
    },
    {
      "name": "교동반점",
      "lat": 37.758351,
      "lng": 128.8930428,
      "current": null,
      "weekly": null,
      "footfall": null,
      "source": "google",
      "updated": "2026-07-06T18:09:05+00:00"
    },
    {
      "name": "강릉감자옹심이 본점",
      "lat": 37.7564341,
      "lng": 128.8948752,
      "current": null,
      "weekly": null,
      "footfall": null,
      "source": "google",
      "updated": "2026-07-06T18:09:06+00:00"
    },
    {
      "name": "형제칼국수",
      "lat": 37.7578859,
      "lng": 128.8930168,
      "current": null,
      "weekly": null,
      "footfall": null,
      "source": "google",
      "updated": "2026-07-06T18:09:07+00:00"
    },
    {
      "name": "삼교리동치미막국수",
      "lat": 37.721335,
      "lng": 128.8821719,
      "current": null,
      "weekly": null,
      "footfall": null,
      "source": "google",
      "updated": "2026-07-06T18:09:09+00:00"
    },
    {
      "name": "해성횟집",
      "lat": 37.7541035,
      "lng": 128.8984997,
      "current": null,
      "weekly": null,
      "footfall": null,
      "source": "google",
      "updated": "2026-07-06T18:09:10+00:00"
    },
    {
      "name": "오봉집 물회",
      "lat": 37.8019814,
      "lng": 128.910769,
      "current": null,
      "weekly": null,
      "footfall": null,
      "source": "google",
      "updated": "2026-07-06T18:09:11+00:00"
    },
    {
      "name": "경포호 주변 횟집거리",
      "lat": 37.8012929,
      "lng": 128.9115102,
      "current": null,
      "weekly": null,
      "footfall": null,
      "source": "google",
      "updated": "2026-07-06T18:09:13+00:00"
    },
    {
      "name": "안목해변 커피거리",
      "lat": 37.7723486,
      "lng": 128.9476577,
      "current": null,
      "weekly": null,
      "footfall": null,
      "source": "google",
      "updated": "2026-07-06T18:09:14+00:00"
    },
    {
      "name": "강문해변 카페거리",
      "lat": 37.7947359,
      "lng": 128.9185621,
      "current": null,
      "weekly": null,
      "footfall": null,
      "source": "google",
      "updated": "2026-07-06T18:09:16+00:00"
    },
    {
      "name": "버드나무브루어리",
      "lat": 37.74822959999999,
      "lng": 128.8843596,
      "current": null,
      "weekly": null,
      "footfall": null,
      "source": "google",
      "updated": "2026-07-06T18:09:17+00:00"
    },
    {
      "name": "강릉물회 강릉횟집 천둥수산 강문해변점",
      "lat": 37.7917604,
      "lng": 128.913681,
      "current": null,
      "weekly": null,
      "footfall": null,
      "source": "google",
      "updated": "2026-07-06T18:09:18+00:00"
    },
    {
      "name": "강릉 카페 체크이스트",
      "lat": 37.76615719999999,
      "lng": 128.9129473,
      "current": null,
      "weekly": null,
      "footfall": null,
      "source": "google",
      "updated": "2026-07-06T18:09:20+00:00"
    },
    {
      "name": "강릉빵다방",
      "lat": 37.7690229,
      "lng": 128.9181088,
      "current": null,
      "weekly": null,
      "footfall": null,
      "source": "google",
      "updated": "2026-07-06T18:09:21+00:00"
    },
    {
      "name": "봉봉방앗간",
      "lat": 37.7510423,
      "lng": 128.8923955,
      "current": null,
      "weekly": null,
      "footfall": null,
      "source": "google",
      "updated": "2026-07-06T18:09:22+00:00"
    },
    {
      "name": "오버웨잇 강릉본점",
      "lat": 37.7531478,
      "lng": 128.8989002,
      "current": null,
      "weekly": null,
      "footfall": null,
      "source": "google",
      "updated": "2026-07-06T18:09:24+00:00"
    },
    {
      "name": "베이커리 가루",
      "lat": 37.762457,
      "lng": 128.8771916,
      "current": null,
      "weekly": null,
      "footfall": null,
      "source": "google",
      "updated": "2026-07-06T18:09:25+00:00"
    },
    {
      "name": "레드망치",
      "lat": 37.7611994,
      "lng": 128.8943073,
      "current": null,
      "weekly": null,
      "footfall": null,
      "source": "google",
      "updated": "2026-07-06T18:09:26+00:00"
    },
    {
      "name": "메종고니",
      "lat": 37.7836021,
      "lng": 128.9166881,
      "current": null,
      "weekly": null,
      "footfall": null,
      "source": "google",
      "updated": "2026-07-06T18:09:28+00:00"
    },
    {
      "name": "안뇬소품샵",
      "lat": 37.7579345,
      "lng": 128.8913448,
      "current": null,
      "weekly": null,
      "footfall": null,
      "source": "google",
      "updated": "2026-07-06T18:09:29+00:00"
    }
  ]
}